{
  "type" : "FeatureCollection",
  "features" : [{"type":"Feature","id":1,"geometry":{"type":"Point","coordinates":[-76.619408000304503,39.283703000254633]},"properties":{"OBJECTID":1,"stop_id_raw":"7640","stop_id_pfx":"lightrail_7640","stop_name":"Camden Station / Camden Yards (Northbound)","mode":"lightrail","Headway_Min":8.5999999999999996,"Freq_Class":"High Frequency"}},{"type":"Feature","id":2,"geometry":{"type":"Point","coordinates":[-76.619353999884495,39.286159999638897]},"properties":{"OBJECTID":2,"stop_id_raw":"7641","stop_id_pfx":"lightrail_7641","stop_name":"Convention Center (Northbound)","mode":"lightrail","Headway_Min":8.5999999999999996,"Freq_Class":"High Frequency"}},{"type":"Feature","id":3,"geometry":{"type":"Point","coordinates":[-76.61943099993843,39.289085000057234]},"properties":{"OBJECTID":3,"stop_id_raw":"7642","stop_id_pfx":"lightrail_7642","stop_name":"Baltimore Arena (University Center) (Northbound)","mode":"lightrail","Headway_Min":8.5999999999999996,"Freq_Class":"High Frequency"}},{"type":"Feature","id":4,"geometry":{"type":"Point","coordinates":[-76.619575999754176,39.292567999815958]},"properties":{"OBJECTID":4,"stop_id_raw":"7643","stop_id_pfx":"lightrail_7643","stop_name":"Lexington Market (Northbound)","mode":"lightrail","Headway_Min":8.5999999999999996,"Freq_Class":"High Frequency"}},{"type":"Feature","id":5,"geometry":{"type":"Point","coordinates":[-76.619934000168456,39.2971759996557]},"properties":{"OBJECTID":5,"stop_id_raw":"7644","stop_id_pfx":"lightrail_7644","stop_name":"Mt. Vernon (Centre Street) (Northbound)","mode":"lightrail","Headway_Min":8.5999999999999996,"Freq_Class":"High Frequency"}},{"type":"Feature","id":6,"geometry":{"type":"Point","coordinates":[-76.620444999797613,39.304092000019658]},"properties":{"OBJECTID":6,"stop_id_raw":"7645","stop_id_pfx":"lightrail_7645","stop_name":"Cultural Center / State Center (Northbound)","mode":"lightrail","Headway_Min":8.5999999999999996,"Freq_Class":"High Frequency"}},{"type":"Feature","id":7,"geometry":{"type":"Point","coordinates":[-76.619858000310472,39.307747000263909]},"properties":{"OBJECTID":7,"stop_id_raw":"7646","stop_id_pfx":"lightrail_7646","stop_name":"Mt. Royal / MICA (Northbound)","mode":"lightrail","Headway_Min":8.5999999999999996,"Freq_Class":"High Frequency"}},{"type":"Feature","id":8,"geometry":{"type":"Point","coordinates":[-76.616140999927453,39.30779099959733]},"properties":{"OBJECTID":8,"stop_id_raw":"7647","stop_id_pfx":"lightrail_7647","stop_name":"Penn Station (Northbound)","mode":"lightrail","Headway_Min":30.100000000000001,"Freq_Class":"Infrequent"}},{"type":"Feature","id":9,"geometry":{"type":"Point","coordinates":[-76.622726000205347,39.312244000262389]},"properties":{"OBJECTID":9,"stop_id_raw":"7648","stop_id_pfx":"lightrail_7648","stop_name":"North Avenue (Northbound)","mode":"lightrail","Headway_Min":12,"Freq_Class":"Moderate Frequency"}},{"type":"Feature","id":10,"geometry":{"type":"Point","coordinates":[-76.64347800036802,39.331550999772261]},"properties":{"OBJECTID":10,"stop_id_raw":"7650","stop_id_pfx":"lightrail_7650","stop_name":"Woodberry (Northbound)","mode":"lightrail","Headway_Min":12.699999999999999,"Freq_Class":"Moderate Frequency"}},{"type":"Feature","id":11,"geometry":{"type":"Point","coordinates":[-76.647934000341095,39.344459999890233]},"properties":{"OBJECTID":11,"stop_id_raw":"7651","stop_id_pfx":"lightrail_7651","stop_name":"Cold Spring Lane (Northbound)","mode":"lightrail","Headway_Min":12.699999999999999,"Freq_Class":"Moderate Frequency"}},{"type":"Feature","id":12,"geometry":{"type":"Point","coordinates":[-76.652373999904157,39.368792999905324]},"properties":{"OBJECTID":12,"stop_id_raw":"7652","stop_id_pfx":"lightrail_7652","stop_name":"Mt. Washington (Northbound)","mode":"lightrail","Headway_Min":12.699999999999999,"Freq_Class":"Moderate Frequency"}},{"type":"Feature","id":13,"geometry":{"type":"Point","coordinates":[-76.62979100057504,39.242316999757975]},"properties":{"OBJECTID":13,"stop_id_raw":"7635","stop_id_pfx":"lightrail_7635","stop_name":"Patapsco (Northbound)","mode":"lightrail","Headway_Min":11.800000000000001,"Freq_Class":"Moderate Frequency"}},{"type":"Feature","id":14,"geometry":{"type":"Point","coordinates":[-76.634827000073216,39.256367000421662]},"properties":{"OBJECTID":14,"stop_id_raw":"7637","stop_id_pfx":"lightrail_7637","stop_name":"Cherry Hill (Northbound)","mode":"lightrail","Headway_Min":11.800000000000001,"Freq_Class":"Moderate Frequency"}},{"type":"Feature","id":15,"geometry":{"type":"Point","coordinates":[-76.631889000485856,39.262130999572769]},"properties":{"OBJECTID":15,"stop_id_raw":"7638","stop_id_pfx":"lightrail_7638","stop_name":"Westport (Northbound)","mode":"lightrail","Headway_Min":11.699999999999999,"Freq_Class":"Moderate Frequency"}},{"type":"Feature","id":16,"geometry":{"type":"Point","coordinates":[-76.619681999821864,39.279297000108414]},"properties":{"OBJECTID":16,"stop_id_raw":"7639","stop_id_pfx":"lightrail_7639","stop_name":"Hamburg Street (Northbound)","mode":"lightrail","Headway_Min":11.699999999999999,"Freq_Class":"Moderate Frequency"}},{"type":"Feature","id":17,"geometry":{"type":"Point","coordinates":[-76.622436999450912,39.311523000372219]},"properties":{"OBJECTID":17,"stop_id_raw":"7676","stop_id_pfx":"lightrail_7676","stop_name":"North Avenue (Southbound)","mode":"lightrail","Headway_Min":11.4,"Freq_Class":"Moderate Frequency"}},{"type":"Feature","id":18,"geometry":{"type":"Point","coordinates":[-76.619910999953433,39.307033999612926]},"properties":{"OBJECTID":18,"stop_id_raw":"7678","stop_id_pfx":"lightrail_7678","stop_name":"Mt. Royal / MICA (Southbound)","mode":"lightrail","Headway_Min":8.5,"Freq_Class":"High Frequency"}},{"type":"Feature","id":19,"geometry":{"type":"Point","coordinates":[-76.620452999428892,39.303328999730041]},"properties":{"OBJECTID":19,"stop_id_raw":"7679","stop_id_pfx":"lightrail_7679","stop_name":"Cultural Center / State Center (Southbound)","mode":"lightrail","Headway_Min":8.5,"Freq_Class":"High Frequency"}},{"type":"Feature","id":20,"geometry":{"type":"Point","coordinates":[-76.61999499987418,39.296509000001222]},"properties":{"OBJECTID":20,"stop_id_raw":"7680","stop_id_pfx":"lightrail_7680","stop_name":"Mt. Vernon (Centre Street) (Southbound)","mode":"lightrail","Headway_Min":8.5,"Freq_Class":"High Frequency"}},{"type":"Feature","id":21,"geometry":{"type":"Point","coordinates":[-76.619666999935731,39.291866000263674]},"properties":{"OBJECTID":21,"stop_id_raw":"7681","stop_id_pfx":"lightrail_7681","stop_name":"Lexington Market (Southbound)","mode":"lightrail","Headway_Min":8.5999999999999996,"Freq_Class":"High Frequency"}},{"type":"Feature","id":22,"geometry":{"type":"Point","coordinates":[-76.619492000435514,39.288424999769468]},"properties":{"OBJECTID":22,"stop_id_raw":"7682","stop_id_pfx":"lightrail_7682","stop_name":"Baltimore Arena (University Center) (Southbound)","mode":"lightrail","Headway_Min":8.5999999999999996,"Freq_Class":"High Frequency"}},{"type":"Feature","id":23,"geometry":{"type":"Point","coordinates":[-76.619422999640236,39.285427000025521]},"properties":{"OBJECTID":23,"stop_id_raw":"7683","stop_id_pfx":"lightrail_7683","stop_name":"Convention Center (Southbound)","mode":"lightrail","Headway_Min":8.5999999999999996,"Freq_Class":"High Frequency"}},{"type":"Feature","id":24,"geometry":{"type":"Point","coordinates":[-76.619484000482387,39.282790999933141]},"properties":{"OBJECTID":24,"stop_id_raw":"7684","stop_id_pfx":"lightrail_7684","stop_name":"Camden Station / Camden Yards (Southbound)","mode":"lightrail","Headway_Min":8.5999999999999996,"Freq_Class":"High Frequency"}},{"type":"Feature","id":25,"geometry":{"type":"Point","coordinates":[-76.620140000172356,39.27862200019068]},"properties":{"OBJECTID":25,"stop_id_raw":"7685","stop_id_pfx":"lightrail_7685","stop_name":"Hamburg Street (Southbound)","mode":"lightrail","Headway_Min":12,"Freq_Class":"Moderate Frequency"}},{"type":"Feature","id":26,"geometry":{"type":"Point","coordinates":[-76.632377999619905,39.261527999706885]},"properties":{"OBJECTID":26,"stop_id_raw":"7686","stop_id_pfx":"lightrail_7686","stop_name":"Westport (Southbound)","mode":"lightrail","Headway_Min":12,"Freq_Class":"Moderate Frequency"}},{"type":"Feature","id":27,"geometry":{"type":"Point","coordinates":[-76.635039999865484,39.255665000274504]},"properties":{"OBJECTID":27,"stop_id_raw":"7687","stop_id_pfx":"lightrail_7687","stop_name":"Cherry Hill (Southbound)","mode":"lightrail","Headway_Min":12,"Freq_Class":"Moderate Frequency"}},{"type":"Feature","id":28,"geometry":{"type":"Point","coordinates":[-76.651970000240382,39.368152999853308]},"properties":{"OBJECTID":28,"stop_id_raw":"7673","stop_id_pfx":"lightrail_7673","stop_name":"Mt. Washington (Southbound)","mode":"lightrail","Headway_Min":12.800000000000001,"Freq_Class":"Moderate Frequency"}},{"type":"Feature","id":29,"geometry":{"type":"Point","coordinates":[-76.647864999647652,39.343749999805198]},"properties":{"OBJECTID":29,"stop_id_raw":"7674","stop_id_pfx":"lightrail_7674","stop_name":"Cold Spring Lane (Southbound)","mode":"lightrail","Headway_Min":12.800000000000001,"Freq_Class":"Moderate Frequency"}},{"type":"Feature","id":30,"geometry":{"type":"Point","coordinates":[-76.643356000173,39.330856000031616]},"properties":{"OBJECTID":30,"stop_id_raw":"7675","stop_id_pfx":"lightrail_7675","stop_name":"Woodberry (Southbound)","mode":"lightrail","Headway_Min":12.800000000000001,"Freq_Class":"Moderate Frequency"}},{"type":"Feature","id":31,"geometry":{"type":"Point","coordinates":[-76.616110000236517,39.307804999651694]},"properties":{"OBJECTID":31,"stop_id_raw":"7677","stop_id_pfx":"lightrail_7677","stop_name":"Penn Station (Southbound)","mode":"lightrail","Headway_Min":29.699999999999999,"Freq_Class":"Low Frequency"}},{"type":"Feature","id":32,"geometry":{"type":"Point","coordinates":[-76.705383000156218,39.352283000210029]},"properties":{"OBJECTID":32,"stop_id_raw":"7519","stop_id_pfx":"metro_7519","stop_name":"REISTERSTOWN PLAZA STATION (METRO) nb","mode":"metro","Headway_Min":9.5999999999999996,"Freq_Class":"High Frequency"}},{"type":"Feature","id":33,"geometry":{"type":"Point","coordinates":[-76.704033999864393,39.351608999949661]},"properties":{"OBJECTID":33,"stop_id_raw":"4819","stop_id_pfx":"metro_4819","stop_name":"REISTERSTOWN PLAZA STATION (METRO) sb","mode":"metro","Headway_Min":10.300000000000001,"Freq_Class":"Moderate Frequency"}},{"type":"Feature","id":34,"geometry":{"type":"Point","coordinates":[-76.69120399963434,39.344504000125148]},"properties":{"OBJECTID":34,"stop_id_raw":"10419","stop_id_pfx":"metro_10419","stop_name":"ROGERS AVE STATION (METRO) sb","mode":"metro","Headway_Min":9.9000000000000004,"Freq_Class":"High Frequency"}},{"type":"Feature","id":35,"geometry":{"type":"Point","coordinates":[-76.671734000038754,39.335899000245817]},"properties":{"OBJECTID":35,"stop_id_raw":"5585","stop_id_pfx":"metro_5585","stop_name":"WEST COLD SPRING STATION (METRO)","mode":"metro","Headway_Min":9.9000000000000004,"Freq_Class":"High Frequency"}},{"type":"Feature","id":36,"geometry":{"type":"Point","coordinates":[-76.653735000221985,39.318332999818566]},"properties":{"OBJECTID":36,"stop_id_raw":"7503","stop_id_pfx":"metro_7503","stop_name":"MONDAWMIN STATION (METRO) sb","mode":"metro","Headway_Min":9.9000000000000004,"Freq_Class":"High Frequency"}},{"type":"Feature","id":37,"geometry":{"type":"Point","coordinates":[-76.642229000053646,39.309920999921154]},"properties":{"OBJECTID":37,"stop_id_raw":"7504","stop_id_pfx":"metro_7504","stop_name":"PENN NORTH STATION (METRO) sb","mode":"metro","Headway_Min":9.9000000000000004,"Freq_Class":"High Frequency"}},{"type":"Feature","id":38,"geometry":{"type":"Point","coordinates":[-76.634812000095764,39.304106000330599]},"properties":{"OBJECTID":38,"stop_id_raw":"7505","stop_id_pfx":"metro_7505","stop_name":"UPTON STATION (METRO) sb","mode":"metro","Headway_Min":9.9000000000000004,"Freq_Class":"High Frequency"}},{"type":"Feature","id":39,"geometry":{"type":"Point","coordinates":[-76.621616000455873,39.300233999775088]},"properties":{"OBJECTID":39,"stop_id_raw":"7506","stop_id_pfx":"metro_7506","stop_name":"STATE CENTER (METRO) sb","mode":"metro","Headway_Min":9.9000000000000004,"Freq_Class":"High Frequency"}},{"type":"Feature","id":40,"geometry":{"type":"Point","coordinates":[-76.620922999610727,39.290968000378243]},"properties":{"OBJECTID":40,"stop_id_raw":"7507","stop_id_pfx":"metro_7507","stop_name":"LEXINGTON MARKET (METRO) sb","mode":"metro","Headway_Min":9.9000000000000004,"Freq_Class":"High Frequency"}},{"type":"Feature","id":41,"geometry":{"type":"Point","coordinates":[-76.61308899968833,39.289602999576211]},"properties":{"OBJECTID":41,"stop_id_raw":"7508","stop_id_pfx":"metro_7508","stop_name":"CHARLES CENTER (METRO) sb","mode":"metro","Headway_Min":9.9000000000000004,"Freq_Class":"High Frequency"}},{"type":"Feature","id":42,"geometry":{"type":"Point","coordinates":[-76.604697000222686,39.290028999831655]},"properties":{"OBJECTID":42,"stop_id_raw":"7509","stop_id_pfx":"metro_7509","stop_name":"SHOT TOWER STATION (METRO) sb","mode":"metro","Headway_Min":9.9000000000000004,"Freq_Class":"High Frequency"}},{"type":"Feature","id":43,"geometry":{"type":"Point","coordinates":[-76.594165999973143,39.29658300015619]},"properties":{"OBJECTID":43,"stop_id_raw":"7510","stop_id_pfx":"metro_7510","stop_name":"JOHNS HOPKINS STATION (METRO)","mode":"metro","Headway_Min":5.0999999999999996,"Freq_Class":"High Frequency"}},{"type":"Feature","id":44,"geometry":{"type":"Point","coordinates":[-76.606310000558594,39.289808000322857]},"properties":{"OBJECTID":44,"stop_id_raw":"7511","stop_id_pfx":"metro_7511","stop_name":"SHOT TOWER STATION (METRO) nb","mode":"metro","Headway_Min":9.9000000000000004,"Freq_Class":"High Frequency"}},{"type":"Feature","id":45,"geometry":{"type":"Point","coordinates":[-76.614759999455117,39.28945599964792]},"properties":{"OBJECTID":45,"stop_id_raw":"7512","stop_id_pfx":"metro_7512","stop_name":"CHARLES CENTER (METRO) nb","mode":"metro","Headway_Min":9.9000000000000004,"Freq_Class":"High Frequency"}},{"type":"Feature","id":46,"geometry":{"type":"Point","coordinates":[-76.621098999602381,39.292228000211551]},"properties":{"OBJECTID":46,"stop_id_raw":"7513","stop_id_pfx":"metro_7513","stop_name":"LEXINGTON MARKET (METRO) nb","mode":"metro","Headway_Min":9.9000000000000004,"Freq_Class":"High Frequency"}},{"type":"Feature","id":47,"geometry":{"type":"Point","coordinates":[-76.622734000162097,39.301157000276291]},"properties":{"OBJECTID":47,"stop_id_raw":"7514","stop_id_pfx":"metro_7514","stop_name":"STATE CENTER (METRO) nb","mode":"metro","Headway_Min":9.9000000000000004,"Freq_Class":"High Frequency"}},{"type":"Feature","id":48,"geometry":{"type":"Point","coordinates":[-76.636117999773973,39.304754000325936]},"properties":{"OBJECTID":48,"stop_id_raw":"7515","stop_id_pfx":"metro_7515","stop_name":"UPTON STATION (METRO) nb","mode":"metro","Headway_Min":9.9000000000000004,"Freq_Class":"High Frequency"}},{"type":"Feature","id":49,"geometry":{"type":"Point","coordinates":[-76.643398000322065,39.310791999591707]},"properties":{"OBJECTID":49,"stop_id_raw":"7516","stop_id_pfx":"metro_7516","stop_name":"PENN NORTH STATION (METRO) nb","mode":"metro","Headway_Min":9.9000000000000004,"Freq_Class":"High Frequency"}},{"type":"Feature","id":50,"geometry":{"type":"Point","coordinates":[-76.653594999566224,39.318322999657425]},"properties":{"OBJECTID":50,"stop_id_raw":"7517","stop_id_pfx":"metro_7517","stop_name":"MONDAWMIN STATION (METRO) nb","mode":"metro","Headway_Min":9.9000000000000004,"Freq_Class":"High Frequency"}},{"type":"Feature","id":51,"geometry":{"type":"Point","coordinates":[-76.673012000461171,39.336674999725602]},"properties":{"OBJECTID":51,"stop_id_raw":"5584","stop_id_pfx":"metro_5584","stop_name":"WEST COLD SPRING STATION (METRO)","mode":"metro","Headway_Min":9.9000000000000004,"Freq_Class":"High Frequency"}},{"type":"Feature","id":52,"geometry":{"type":"Point","coordinates":[-76.69254700005537,39.345171000197304]},"properties":{"OBJECTID":52,"stop_id_raw":"10420","stop_id_pfx":"metro_10420","stop_name":"ROGERS AVE STATION (METRO) nb","mode":"metro","Headway_Min":9.9000000000000004,"Freq_Class":"High Frequency"}},{"type":"Feature","id":53,"geometry":{"type":"Point","coordinates":[-76.61952699950551,39.283156999874137]},"properties":{"OBJECTID":53,"stop_id_raw":"12006","stop_id_pfx":"marc_12006","stop_name":"CAMDEN STATION MARC","mode":"marc","Headway_Min":33.100000000000001,"Freq_Class":"Infrequent"}},{"type":"Feature","id":54,"geometry":{"type":"Point","coordinates":[-76.615715000282464,39.307198000059003]},"properties":{"OBJECTID":54,"stop_id_raw":"11980","stop_id_pfx":"marc_11980","stop_name":"PENN STATION MARC sb","mode":"marc","Headway_Min":33.5,"Freq_Class":"Infrequent"}},{"type":"Feature","id":55,"geometry":{"type":"Point","coordinates":[-76.653375000045557,39.293351000130798]},"properties":{"OBJECTID":55,"stop_id_raw":"11981","stop_id_pfx":"marc_11981","stop_name":"WEST BALTIMORE MARC sb","mode":"marc","Headway_Min":43.200000000000003,"Freq_Class":"Infrequent"}},{"type":"Feature","id":56,"geometry":{"type":"Point","coordinates":[-76.653063999819267,39.293318999685553]},"properties":{"OBJECTID":56,"stop_id_raw":"11995","stop_id_pfx":"marc_11995","stop_name":"WEST BALTIMORE MARC nb","mode":"marc","Headway_Min":49.100000000000001,"Freq_Class":"Infrequent"}},{"type":"Feature","id":57,"geometry":{"type":"Point","coordinates":[-76.615768999489759,39.307222999662599]},"properties":{"OBJECTID":57,"stop_id_raw":"12002","stop_id_pfx":"marc_12002","stop_name":"PENN STATION MARC nb","mode":"marc","Headway_Min":37.700000000000003,"Freq_Class":"Infrequent"}}]
}